[
  {
    "id": 1,
    "name": "커피덕",
    "location": "동교동",
    "address": "서울 마포구 월드컵북로2길 37 커피덕",
    "lat": "",
    "lng": "",
    "url": null,
    "type": "CAFE"
  },
  {
    "id": 2,
    "name": "1984",
    "location": "동교동",
    "address": "서울 마포구 동교로 194 혜원빌딩 1층",
    "lat": "",
    "lng": "",
    "url": null,
    "type": "CAFE"
  },
  {
    "id": 3,
    "name": "오스카 커피부스",
    "location": "동교동",
    "address": "서울 마포구 동교로 187 동명빌딩2층 오스카",
    "lat": "",
    "lng": "",
    "url": null,
    "type": "CAFE"
  },
  {
    "id": 4,
    "name": "W 카페",
    "location": "동교동",
    "address": "서울 마포구 동교로25길 16",
    "lat": "",
    "lng": "",
    "url": null,
    "type": "CAFE"
  },
  {
    "id": 5,
    "name": "카페메리",
    "location": "동교동",
    "address": "서울 마포구 동교로23길 32-22 1층",
    "lat": "",
    "lng": "",
    "url": null,
    "type": "CAFE"
  },
  {
    "id": 6,
    "name": "공상온도",
    "location": "동교동",
    "address": "서울 마포구 동교로23길 40 지하",
    "lat": "",
    "lng": "",
    "url": null,
    "type": "CAFE"
  },
  {
    "id": 7,
    "name": "티와이 티디",
    "location": "동교동",
    "address": "서울 마포구 양화로19길 22-8 1층 tytd",
    "lat": "",
    "lng": "",
    "url": null,
    "type": "CAFE"
  },
  {
    "id": 8,
    "name": "이혜와 서울",
    "location": "동교동",
    "address": "서울 마포구 동교로27길 29 2층",
    "lat": "",
    "lng": "",
    "url": null,
    "type": "CAFE"
  },
  {
    "id": 9,
    "name": "코코로카라",
    "location": "동교동",
    "address": "서울 마포구 연남로1길 41",
    "lat": "",
    "lng": "",
    "url": null,
    "type": "CAFE"
  },
  {
    "id": 10,
    "name": "터틀힙 연남 ",
    "location": "연남동",
    "address": "서울 마포구 연남로1길 44 1층 터틀힙",
    "lat": "",
    "lng": "",
    "url": null,
    "type": "CAFE"
  },
  {
    "id": 11,
    "name": "페블스",
    "location": "연남동",
    "address": "서울 마포구 연남로3길 23",
    "lat": "",
    "lng": "",
    "url": null,
    "type": "CAFE"
  },
  {
    "id": 12,
    "name": "핸드릭스커피로스터스",
    "location": "동교동",
    "address": "서울 마포구 월드컵북로4길 20",
    "lat": "",
    "lng": "",
    "url": null,
    "type": "CAFE"
  },
  {
    "id": 13,
    "name": "신장물갈비",
    "location": "동교동",
    "address": "서울 마포구 양화로19길 2 1층",
    "lat": "",
    "lng": "",
    "url": null,
    "type": "RESTAURANT"
  },
  {
    "id": 14,
    "name": "웨스턴 타코",
    "location": "연남동",
    "address": "서울 마포구 월드컵북로2길 90 1층",
    "lat": "",
    "lng": "",
    "url": null,
    "type": "RESTAURANT"
  },
  {
    "id": 15,
    "name": "디어리스트 연남",
    "location": "연남동",
    "address": "서울 마포구 동교로27길 21-8 1층",
    "lat": "",
    "lng": "",
    "url": null,
    "type": "RESTAURANT"
  },
  {
    "id": 16,
    "name": "낙지낚찌",
    "location": "연남동",
    "address": "서울 마포구 월드컵북로6길 55 1층 건너편",
    "lat": "",
    "lng": "",
    "url": null,
    "type": "RESTAURANT"
  },
  {
    "id": 17,
    "name": "돼지명가 연남점",
    "location": "연남동",
    "address": "서울 마포구 동교로 221 1층",
    "lat": "",
    "lng": "",
    "url": null,
    "type": "RESTAURANT"
  },
  {
    "id": 18,
    "name": "명호야 식탁",
    "location": "동교동",
    "address": "서울 마포구 월드컵북로4길 59 2층 \n명호야 식탁",
    "lat": "",
    "lng": "",
    "url": null,
    "type": "RESTAURANT"
  },
  {
    "id": 19,
    "name": "최정훈 닭꼬치",
    "location": "연남동",
    "address": "서울 마포구 동교로 226 1층 4호",
    "lat": "",
    "lng": "",
    "url": null,
    "type": "RESTAURANT"
  },
  {
    "id": 20,
    "name": "오츠모츠",
    "location": "동교동",
    "address": "서울 마포구 연남로3길 23 1층",
    "url": null,
    "type": "RESTAURANT"
  }
]